,Key,label,points,group_id,shape_type,flags,FilePath,TimeStamp,Unnamed: 0,SourceFile,FileModifyDate,ImageDescription,ExposureTime,FNumber,ExposureProgram,ISO,DateTimeOriginal,Make,SpeedX,SpeedY,SpeedZ,Pitch,Yaw,Roll,CameraPitch,CameraYaw,CameraRoll,ExifImageWidth,ExifImageHeight,SerialNumber,GPSLatitudeRef,GPSLongitudeRef,GPSAltitudeRef,AbsoluteAltitude,RelativeAltitude,GimbalRollDegree,GimbalYawDegree,GimbalPitchDegree,FlightRollDegree,FlightYawDegree,FlightPitchDegree,CamReverse,GimbalReverse,CalibratedFocalLength,CalibratedOpticalCenterX,CalibratedOpticalCenterY,ImageWidth,ImageHeight,GPSAltitude,GPSLatitude,GPSLongitude,CircleOfConfusion,FOV,Longitude,Latitude,Easting,Northing,LocalTime,Interval,GpsDist,GpsSpeed,DroneSpeed,Leg,UtmCode,GPSTime,GPSDistance,timedelta,GPSExcessTime,ImageTime,ImageInterval,ImageNorthing,ImageEasting,ImageDistance,ImageSpeed,GPSSecondOfWeek,GPSWeekNumber,NorthOff,EastOff,VelOff,LatitudeMrk,LongitudeMrk,EllipsoideHight,Error,RTKFlag,UTCTime,EastingMrk,NorthingMrk,GPST,latitude(deg),longitude(deg),height(m),Q,ns,sdn(m),sde(m),sdu(m),sdne(m),sdeu(m),sdun(m),age(s),ratio,Eastingrtk,Northingrtk,geometry,ImagePolygon,Survey,index_right,id,Counter,SurveyId,NewName,JpegX,JpegY,DewarpX,DewarpY,EastingPntJ,NorthingPntJ,EastingPntD,NorthingPntD,groups,turtle_count
0,DJIP4_RGB_AU_MANGB_20201028T104106_0101,turtle_jbs,"[[2119.6721311475408, 109.50819672131146], [2128.524590163934, 126.55737704918032]]",,circle,{},T:/drone/Surveys/AU\MANGB_20201028T1036\DJIP4_RGB_AU_MANGB_20201028T104106_0101.json,2020-10-28 10:41:06,100,T:/drone/raw/card0/SURVEY/100_0001/100_0001_0101.JPG,2020:10:28 10:41:08+08:00,DCIM\SURVEY\100_0001\100_0,1/800,6.3,Program AE,100,2020:10:28 10:41:06,DJI,-7.7,-1.1,0.0,-15.6,-171.4,5.7,-90.0,-170.5,0.0,5472,3648,6e753047f0441c55b34839a8777c2765,South,East,Above Sea Level,93.36,99.8,0.0,-170.5,-90.0,5.7,-171.4,-15.6,0,0,3666.666504,2736,1824,5472,3648,93.3 m Above Sea Level,"21 deg 58' 23.57"" S","113 deg 55' 49.13"" E",0.011 mm,73.7 deg,113.93031388888888,-21.973213888888885,802621.8841559829,7567240.572199096,2020-10-28 10:41:06.000000000,2.0,19.907834433898497,7.778174593576213,7.778174593052023,0,32749.0,2020-10-28 10:41:28.946570680,19.907834433898497,2.559448132,1.7248691364102342e-10,2020-10-28 10:41:06.500000000,2.5,7567413.587682831,802651.8597667682,19.257191775775446,7.702876710310178,268885.178855,2129,"    14,N","    20,E","   193,V",-21.97321414,113.93031374,93.362,"1.026368, 1.037198, 2.987794","16,Q",2020-10-28 02:40:48.178855000,802621.8682372163,7567240.544673035,2020-10-28 02:41:25.178855000,-21.97322102091443,113.93030559897464,92.0434854912,1.0,7.0,0.004204847104,0.006189427456,0.0173894274559999,0.001542290176,0.007910572544,0.0048211450879999,0.178854912,6.078854912,802621.0123572424,7567239.798445718,POINT (113.9303138888889 -21.97321388888889),"POLYGON Z ((802535.7429536241 7567323.826055107 0, 802565.1412298976 7567310.981725566 0, 802586.6012615286 7567304.014853351 0, 802605.4444713909 7567298.955045703 0, 802623.0824639712 7567295.13502223 0, 802640.4714154474 7567292.26660853 0, 802658.4886815167 7567290.20710869 0, 802678.1508660779 7567288.926450753 0, 802701.1079962185 7567288.634735407 0, 802735.4988122676 7567292.073953838 0, 802735.4988122676 7567292.073953838 0, 802724.2675639801 7567274.24017838 0, 802718.2074837633 7567259.692623915 0, 802714.004625427 7567246.276802488 0, 802710.9340694699 7567233.329542817 0, 802708.7540142589 7567220.437981153 0, 802707.3988253037 7567207.224416061 0, 802706.952560898 7567193.227739356 0, 802707.8384208967 7567177.631558015 0, 802712.1307408309 7567157.721459134 0, 802712.1307408309 7567157.721459134 0, 802681.3428843098 7567171.510138681 0, 802659.5855466194 7567178.647942309 0, 802640.6132815542 7567183.808051024 0, 802622.9489342447 7567187.706577834 0, 802605.6189378491 7567190.647820709 0, 802587.7448232612 7567192.783112916 0, 802568.3256735086 7567194.15048972 0, 802545.8235753253 7567194.588945026 0, 802514.3840433867 7567192.318306913 0, 802514.3840433867 7567192.318306913 0, 802523.5437627923 7567209.06011218 0, 802529.0910385903 7567223.312022368 0, 802533.0730015928 7567236.566695094 0, 802536.0245708871 7567249.39580146 0, 802538.1429988893 7567262.188096273 0, 802539.4874517542 7567275.306507722 0, 802539.9908801676 7567289.188390337 0, 802539.3007810651 7567304.581900775 0, 802535.7429536241 7567323.826055107 0))",1,0,MANGB,101,MANGB_20201028T1036,DJIP4_RGB_AU_MANGB_20201028T104106_0101.JPG,2119.0,109.0,2078.3616029686573,-9.819796173179611,802636.7182664179,7567190.169428557,802637.8125103281,7567186.660377311,0,"(1, array([802635.67686548]), array([[ 802635.67686548, 7567188.37508429]]))"
1,DJIP4_RGB_AU_MANGB_20201028T104109_0102,turtle_jbs,"[[2029.787234042553, 707.9787234042552], [2032.4468085106382, 729.7872340425531]]",,circle,{},T:/drone/Surveys/AU\MANGB_20201028T1036\DJIP4_RGB_AU_MANGB_20201028T104109_0102.json,2020-10-28 10:41:09,101,T:/drone/raw/card0/SURVEY/100_0001/100_0001_0102.JPG,2020:10:28 10:41:12+08:00,DCIM\SURVEY\100_0001\100_0,1/800,6.3,Program AE,100,2020:10:28 10:41:09,DJI,-7.7,-1.2,0.0,-18.8,-172.6,6.0,-90.0,-170.0,0.0,5472,3648,6e753047f0441c55b34839a8777c2765,South,East,Above Sea Level,92.99,100.1,0.0,-170.0,-90.0,6.0,-172.6,-18.8,0,0,3666.666504,2736,1824,5472,3648,92.9 m Above Sea Level,"21 deg 58' 24.20"" S","113 deg 55' 49.02"" E",0.011 mm,73.7 deg,113.93028333333334,-21.973388888888888,802618.3552485551,7567221.244319604,2020-10-28 10:41:09.000000000,3.0,19.647394567695585,7.792945528013055,7.792945527847606,0,32749.0,2020-10-28 10:41:31.467747621,19.647394567695585,2.521176941,5.352607246322805e-11,2020-10-28 10:41:09.000000000,2.5,7567394.292889801,802647.7332613618,19.731119708435955,7.892447883374382,268887.680334,2129,"    23,N","    23,E","   192,V",-21.97338872,113.93028215,92.985,"1.027719, 1.041015, 3.027424","16,Q",2020-10-28 02:40:50.680334000,802618.233323616,7567221.265373057,2020-10-28 02:41:27.680334000,-21.97339466477892,113.93027853739272,92.11582976576,1.0,7.0,0.00435983296,0.00615983296,0.01758033408,0.00174100224,0.00808033408,0.00481966592,0.68033408,8.28033408,802617.8473889803,7567220.613897705,POINT (113.9302833333333 -21.97338888888889),"POLYGON Z ((802532.6870962098 7567305.499232048 0, 802562.0601978631 7567292.359466562 0, 802583.5229396054 7567285.184083251 0, 802602.3777854145 7567279.944328765 0, 802620.0346886154 7567275.958586898 0, 802637.4501408221 7567272.929458811 0, 802655.5028525819 7567270.706145803 0, 802675.2121816787 7567269.249588571 0, 802698.2348911471 7567268.756069042 0, 802732.757875649 7567271.904479637 0, 802732.757875649 7567271.904479637 0, 802721.3372001396 7567254.116081238 0, 802715.131803329 7567239.578394715 0, 802710.7990460963 7567226.159544177 0, 802707.6060529253 7567213.200735224 0, 802705.3066908586 7567200.289995235 0, 802703.8318246817 7567187.049076306 0, 802703.2617261854 7567173.014766024 0, 802704.0137055074 7567157.364544287 0, 802708.1444958095 7567137.357786126 0, 802708.1444958095 7567137.357786126 0, 802677.3859555599 7567151.456866953 0, 802655.6265215299 7567158.806291222 0, 802636.6431154173 7567164.147774039 0, 802618.9604663925 7567168.212482904 0, 802601.6047816912 7567171.314140291 0, 802583.6963096538 7567173.612217632 0, 802564.2314956792 7567175.153623869 0, 802541.6664530023 7567175.790336067 0, 802510.1137398045 7567173.788142023 0, 802510.1137398045 7567173.788142023 0, 802519.4471807445 7567190.499461071 0, 802525.1356635194 7567204.745114355 0, 802529.2454593434 7567218.004271377 0, 802532.318078552 7567230.845617829 0, 802534.5547616518 7567243.65733577 0, 802536.0180270178 7567256.802912627 0, 802536.6444544086 7567270.721587788 0, 802536.0870430346 7567286.166823681 0, 802532.6870962098 7567305.499232048 0))",1,0,MANGB,102,MANGB_20201028T1036,DJIP4_RGB_AU_MANGB_20201028T104109_0102.JPG,2029.0,707.0,2006.3749422402964,670.0401840819452,802636.2905559066,7567188.370458752,802636.9103576258,7567187.269696997,0,"(1, array([802635.67686548]), array([[ 802635.67686548, 7567188.37508429]]))"
2,DJIP4_RGB_AU_MANGB_20201028T104111_0103,turtle_jbs,"[[1956.3829787234042, 1378.723404255319], [1954.787234042553, 1402.127659574468]]",,circle,{},T:/drone/Surveys/AU\MANGB_20201028T1036\DJIP4_RGB_AU_MANGB_20201028T104111_0103.json,2020-10-28 10:41:11,102,T:/drone/raw/card0/SURVEY/100_0001/100_0001_0103.JPG,2020:10:28 10:41:14+08:00,DCIM\SURVEY\100_0001\100_0,1/800,6.3,Program AE,100,2020:10:28 10:41:11,DJI,-7.8,-1.1,0.0,-15.4,-172.2,6.2,-90.0,-170.8,0.0,5472,3648,6e753047f0441c55b34839a8777c2765,South,East,Above Sea Level,90.81,99.9,0.0,-170.8,-90.0,6.2,-172.2,-15.4,0,0,3666.666504,2736,1824,5472,3648,90.8 m Above Sea Level,"21 deg 58' 24.84"" S","113 deg 55' 48.90"" E",0.011 mm,73.7 deg,113.93025,-21.973566666666667,802614.5334019547,7567201.614186212,2020-10-28 10:41:11.000000000,2.0,19.998716168779747,7.877182238764781,7.877182237323192,0,32749.0,2020-10-28 10:41:34.006563604,19.998716168779747,2.538815983,4.6462433900273936e-10,2020-10-28 10:41:11.500000000,2.5,7567375.158688204,802644.2691522756,19.445249355465844,7.778099742186337,268890.231636,2129,"    13,N","    21,E","   193,V",-21.9735668,113.93024888,90.814,"1.030637, 1.045828, 3.068027","16,Q",2020-10-28 02:40:53.231636000,802614.4173805807,7567201.601630915,2020-10-28 02:41:30.231636000,-21.97357442560768,113.9302497817931,92.47040271232,1.84182016,7.0,0.010850379264,0.014870747648,0.037372047872,0.005230552576,0.016807475712,0.012792199424,0.231635968,2.915817984,802614.4943883102,7567200.755000262,POINT (113.93025 -21.97356666666667),"POLYGON Z ((802527.8707167847 7567284.498836398 0, 802557.365366693 7567271.795895578 0, 802578.8831217403 7567264.934614664 0, 802597.7714735335 7567259.968567722 0, 802615.44691898 7567256.237213414 0, 802632.8680896123 7567253.457104063 0, 802650.9139561024 7567251.490001136 0, 802670.6022846545 7567250.311131191 0, 802693.583631867 7567250.139450694 0, 802727.9904100914 7567253.762317544 0, 802727.9904100914 7567253.762317544 0, 802716.8415327249 7567235.852051944 0, 802710.8517102289 7567221.25835823 0, 802706.7150134225 7567207.807250116 0, 802703.7092821993 7567194.831101465 0, 802701.5946398634 7567181.915373169 0, 802700.307366672 7567168.681646511 0, 802699.934020757 7567154.66879817 0, 802700.9024991017 7567139.061846374 0, 802705.3034140756 7567119.154567641 0, 802705.3034140756 7567119.154567641 0, 802674.4128610851 7567132.795508669 0, 802652.5966102683 7567139.826331682 0, 802633.5785500304 7567144.892102411 0, 802615.8763123563 7567148.701899508 0, 802598.5137733557 7567151.555219007 0, 802580.6108025773 7567153.598939492 0, 802561.165294509 7567154.865887802 0, 802538.6386598591 7567155.186838198 0, 802507.1799576724 7567152.749174855 0, 802507.1799576724 7567152.749174855 0, 802516.2609821465 7567169.555533771 0, 802521.7390429621 7567183.850603312 0, 802525.6554707419 7567197.139245705 0, 802528.5427169763 7567209.996500648 0, 802530.5961914767 7567222.812540988 0, 802531.8732166877 7567235.950963695 0, 802532.3043847647 7567249.849204105 0, 802531.532923024 7567265.254310725 0, 802527.8707167847 7567284.498836398 0))",1,0,MANGB,103,MANGB_20201028T1036,DJIP4_RGB_AU_MANGB_20201028T104111_0103.JPG,1956.0,1378.0,1945.11435052072,1372.3319064544412,802635.4864206666,7567188.553633674,802635.7930902587,7567188.385115641,0,"(1, array([802635.67686548]), array([[ 802635.67686548, 7567188.37508429]]))"
3,DJIP4_RGB_AU_MANGB_20201028T104114_0104,turtle_jbs,"[[1889.285714285714, 2070.0], [1881.4285714285713, 2095.0]]",,circle,{},T:/drone/Surveys/AU\MANGB_20201028T1036\DJIP4_RGB_AU_MANGB_20201028T104114_0104.json,2020-10-28 10:41:14,103,T:/drone/raw/card0/SURVEY/100_0001/100_0001_0104.JPG,2020:10:28 10:41:16+08:00,DCIM\SURVEY\100_0001\100_0,1/640,6.3,Program AE,100,2020:10:28 10:41:14,DJI,-7.7,-1.0,0.1,-18.7,-172.7,8.1,-90.0,-170.5,0.0,5472,3648,6e753047f0441c55b34839a8777c2765,South,East,Above Sea Level,91.21,100.2,0.0,-170.5,-90.0,8.1,-172.7,-18.7,0,0,3666.666504,2736,1824,5472,3648,91.2 m Above Sea Level,"21 deg 58' 25.48"" S","113 deg 55' 48.80"" E",0.011 mm,73.7 deg,113.93022222222224,-21.97374444444444,802611.2856597963,7567181.973056695,2020-10-28 10:41:14.000000000,3.0,19.90783257490937,7.764663546080871,7.764663547121666,0,32749.0,2020-10-28 10:41:36.570465112,19.90783257490937,2.5639015080000003,-3.4367175771876646e-10,2020-10-28 10:41:14.000000000,2.5,7567355.961639987,802641.0274007479,19.46883697645574,7.787534790582296,268892.755923,2129,"    21,N","    29,E","   191,V",-21.97374377,113.93022193,91.207,"1.022885, 1.052152, 3.047525","16,Q",2020-10-28 02:40:55.755923000,802611.2568933845,7567182.048357194,2020-10-28 02:41:32.755923000,-21.97375109009372,113.93022328540413,92.424703565312,2.0,7.0,0.0121,0.0164,0.041222038528,0.005733884416,0.0185,0.0141,0.755922944,1.555922944,802611.381424471,7567181.23467681,POINT (113.9302222222222 -21.97374444444444),"POLYGON Z ((802524.7992021175 7567265.560595496 0, 802554.3153071536 7567252.664785677 0, 802575.8613509354 7567245.669990126 0, 802594.780084685 7567240.589902688 0, 802612.4887706223 7567236.754568499 0, 802629.9474172948 7567233.874658152 0, 802648.0368968553 7567231.806903803 0, 802667.7778877675 7567230.521112967 0, 802690.8270304537 7567230.228228423 0, 802725.3556854448 7567233.681231297 0, 802725.3556854448 7567233.681231297 0, 802714.0794221342 7567215.77597778 0, 802707.9950530188 7567201.170116483 0, 802703.7753495588 7567187.700524229 0, 802700.6924867643 7567174.701371733 0, 802698.503693857 7567161.758140485 0, 802697.1430732828 7567148.491615212 0, 802696.6950202422 7567134.438839602 0, 802697.584430782 7567118.780148515 0, 802701.8939544032 7567098.790249639 0, 802701.8939544032 7567098.790249639 0, 802670.9826996597 7567112.634194435 0, 802649.1381582109 7567119.800606495 0, 802630.0898520031 7567124.981397008 0, 802612.3547057065 7567128.895549175 0, 802594.9552504075 7567131.8485806 0, 802577.0094960817 7567133.992431092 0, 802557.5125140656 7567135.365288363 0, 802534.920227112 7567135.805501006 0, 802503.3546850253 7567133.525762138 0, 802503.3546850253 7567133.525762138 0, 802512.5511167331 7567150.33466883 0, 802518.1206261016 7567164.643700902 0, 802522.1185488757 7567177.95149857 0, 802525.081948107 7567190.832024199 0, 802527.2088668025 7567203.675590735 0, 802528.558708256 7567216.846580987 0, 802529.0641544187 7567230.78410241 0, 802528.3712893879 7567246.239310284 0, 802524.7992021175 7567265.560595496 0))",1,0,MANGB,104,MANGB_20201028T1036,DJIP4_RGB_AU_MANGB_20201028T104114_0104.JPG,1889.0,2070.0,1877.1233135619752,2073.9508500406887,802634.8222976988,7567188.679666454,802635.1647748008,7567188.784117981,0,"(1, array([802635.67686548]), array([[ 802635.67686548, 7567188.37508429]]))"
4,DJIP4_RGB_AU_MANGB_20201028T104116_0105,turtle_jbs,"[[1835.576923076923, 2754.8076923076924], [1826.923076923077, 2775.0]]",,circle,{},T:/drone/Surveys/AU\MANGB_20201028T1036\DJIP4_RGB_AU_MANGB_20201028T104116_0105.json,2020-10-28 10:41:16,104,T:/drone/raw/card0/SURVEY/100_0001/100_0001_0105.JPG,2020:10:28 10:41:18+08:00,DCIM\SURVEY\100_0001\100_0,1/640,6.3,Program AE,100,2020:10:28 10:41:16,DJI,-7.7,-1.2,0.0,-18.4,-172.6,6.7,-90.0,-170.0,0.0,5472,3648,6e753047f0441c55b34839a8777c2765,South,East,Above Sea Level,90.96,99.9,0.0,-170.0,-90.0,6.7,-172.6,-18.4,0,0,3666.666504,2736,1824,5472,3648,90.9 m Above Sea Level,"21 deg 58' 26.11"" S","113 deg 55' 48.69"" E",0.011 mm,73.7 deg,113.93019166666669,-21.973919444444444,802607.7567674584,7567162.645176693,2020-10-28 10:41:16.000000000,2.0,19.64739235944475,7.792945526883721,7.792945527847606,0,32749.0,2020-10-28 10:41:39.091641770,19.64739235944475,2.5211766580000003,-3.11836334532245e-10,2020-10-28 10:41:16.500000000,2.5,7567336.586910122,802637.6296284794,19.67040959764959,7.868163839059837,268895.265901,2129,"    23,N","    24,E","   192,V",-21.9739186,113.93019302,90.961,"1.060317, 1.012345, 3.077537","16,Q",2020-10-28 02:40:58.265901000,802607.898409632,7567162.736054616,2020-10-28 02:41:35.265901000,-21.97392727547233,113.9301944039497,92.298768992768,2.0,7.0,0.012032950528,0.0163,0.0411,0.005732950528,0.0183,0.0143,0.265901056,2.365901056,802608.0230142853,7567161.772154516,POINT (113.9301916666667 -21.97391944444444),"POLYGON Z ((802522.2597802527 7567246.731747654 0, 802551.5741943902 7567233.618235446 0, 802572.9940535317 7567226.457188564 0, 802591.811227321 7567221.227903119 0, 802609.4328519942 7567217.250124772 0, 802626.8135080925 7567214.227048888 0, 802644.8301504981 7567212.008178065 0, 802664.5001003161 7567210.554531036 0, 802687.4768103649 7567210.061997561 0, 802721.9308178748 7567213.204117625 0, 802721.9308178748 7567213.204117625 0, 802710.532960898 7567195.451260482 0, 802704.3399624825 7567180.942620285 0, 802700.0158621074 7567167.550580638 0, 802696.8292485431 7567154.617663411 0, 802694.5344806064 7567141.732719107 0, 802693.0625612151 7567128.51825556 0, 802692.4936017768 7567114.511985858 0, 802693.2440786426 7567098.893033295 0, 802697.3666156173 7567078.926248676 0, 802697.3666156173 7567078.926248676 0, 802666.6695309926 7567092.997159511 0, 802644.9535723553 7567100.331899616 0, 802626.0080951261 7567105.66271014 0, 802608.3607760693 7567109.719297709 0, 802591.0397680609 7567112.814757979 0, 802573.1670771863 7567115.108243757 0, 802553.7411539489 7567116.64657026 0, 802531.2211962723 7567117.282010307 0, 802499.7315254586 7567115.28381665 0, 802499.7315254586 7567115.28381665 0, 802509.0463181649 7567131.961746449 0, 802514.7234353399 7567146.17893689 0, 802518.8250197837 7567159.411602088 0, 802521.8914998929 7567172.227291505 0, 802524.1237140953 7567185.013411608 0, 802525.5840558544 7567198.132723576 0, 802526.2092316418 7567212.023589197 0, 802525.652933977 7567227.437965477 0, 802522.2597802527 7567246.731747654 0))",1,0,MANGB,105,MANGB_20201028T1036,DJIP4_RGB_AU_MANGB_20201028T104116_0105.JPG,1835.0,2754.0,1805.556919912244,2787.5311480664686,802633.6965266766,7567188.513538698,802634.5695192313,7567189.443675159,0,"(1, array([802635.67686548]), array([[ 802635.67686548, 7567188.37508429]]))"
5,DJIP4_RGB_AU_MANGB_20201028T104119_0106,turtle_jbs,"[[1776.6233766233765, 3377.272727272727], [1766.2337662337661, 3392.8571428571427]]",,circle,{},T:/drone/Surveys/AU\MANGB_20201028T1036\DJIP4_RGB_AU_MANGB_20201028T104119_0106.json,2020-10-28 10:41:19,105,T:/drone/raw/card0/SURVEY/100_0001/100_0001_0106.JPG,2020:10:28 10:41:22+08:00,DCIM\SURVEY\100_0001\100_0,1/640,6.3,Program AE,100,2020:10:28 10:41:19,DJI,-7.8,-1.2,0.0,-18.3,-171.9,3.7,-89.9,-170.4,0.0,5472,3648,6e753047f0441c55b34839a8777c2765,South,East,Above Sea Level,90.43,99.8,0.0,-170.4,-89.9,3.7,-171.9,-18.3,0,0,3666.666504,2736,1824,5472,3648,90.4 m Above Sea Level,"21 deg 58' 26.75"" S","113 deg 55' 48.58"" E",0.011 mm,73.7 deg,113.93016111111112,-21.97409722222222,802604.2219856906,7567143.009544816,2020-10-28 10:41:19.000000000,3.0,19.951258640863024,7.891767862914145,7.891767862779543,0,32749.0,2020-10-28 10:41:41.619751946,19.951258640863024,2.528110176,4.311973000881153e-11,2020-10-28 10:41:19.000000000,2.5,7567317.279943879,802635.1855159102,19.461054230728376,7.7844216922913505,268897.798729,2129,"    23,N","    15,E","   193,V",-21.97409709,113.93016148,90.432,"1.019138, 1.051036, 3.023549","16,Q",2020-10-28 02:41:00.798729000,802604.2603863198,7567143.023463674,2020-10-28 02:41:37.798729000,-21.974105768787936,113.93016218150667,91.77252056,1.0,7.0,0.00390254208,0.0062,0.01759872896,0.00179809344,0.00809936448,0.00470063552,0.79872896,5.19809344,802604.3144618612,7567142.060546978,POINT (113.9301611111111 -21.97409722222222),"POLYGON Z ((802518.3282240521 7567226.314807196 0, 802547.661475584 7567213.4440857 0, 802569.0847594753 7567206.450805837 0, 802587.8998993641 7567201.365081802 0, 802605.5143149043 7567197.518786033 0, 802622.8818151859 7567194.622725957 0, 802640.877843774 7567192.532943854 0, 802660.5169238586 7567191.217567916 0, 802683.4458124134 7567190.883192339 0, 802717.788247679 7567194.25070797 0, 802717.788247679 7567194.25070797 0, 802706.574326964 7567176.469536424 0, 802700.5200146371 7567161.950364164 0, 802696.3187264138 7567148.55137149 0, 802693.2473635901 7567135.612466794 0, 802691.0649534968 7567122.721774182 0, 802689.7063874967 7567109.50153024 0, 802689.2561821816 7567095.489498246 0, 802690.1382128417 7567079.86602468 0, 802694.4292268264 7567059.904207303 0, 802694.4292268264 7567059.904207303 0, 802663.6206350341 7567073.773134171 0, 802641.8513237264 7567080.959976009 0, 802622.8692465649 7567086.160127672 0, 802605.195365848 7567090.093979228 0, 802587.854782209 7567093.068202611 0, 802569.9676731032 7567095.23594975 0, 802550.5312593866 7567096.637001859 0, 802528.004065862 7567097.112545495 0, 802496.514735801 7567094.888267974 0, 802496.514735801 7567094.888267974 0, 802505.745253231 7567111.643119039 0, 802511.3463509935 7567125.9016249 0, 802515.375057179 7567139.157770101 0, 802518.3697198653 7567151.983836925 0, 802520.5296594732 7567164.768722863 0, 802521.9157708163 7567177.875044555 0, 802522.4629279925 7567191.73930044 0, 802521.8218008508 7567207.10786858 0, 802518.3282240521 7567226.314807196 0))",1,0,MANGB,106,MANGB_20201028T1036,DJIP4_RGB_AU_MANGB_20201028T104119_0106.JPG,1776.0,3377.0,1709.0144276161077,3491.4346028803648,802631.8222341562,7567186.506853569,802633.810940644,7567189.707522673,0,"(1, array([802635.67686548]), array([[ 802635.67686548, 7567188.37508429]]))"
6,DJIP4_RGB_AU_MANGB_20201028T104307_0148,turtle_jbs,"[[2328.9655172413795, 225.17241379310346], [2312.4137931034484, 239.6551724137931]]",,circle,{},T:/drone/Surveys/AU\MANGB_20201028T1036\DJIP4_RGB_AU_MANGB_20201028T104307_0148.json,2020-10-28 10:43:07,147,T:/drone/raw/card0/SURVEY/100_0001/100_0001_0148.JPG,2020:10:28 10:43:10+08:00,DCIM\SURVEY\100_0001\100_0,1/800,7.1,Program AE,100,2020:10:28 10:43:07,DJI,7.7,1.2,0.0,-1.9,8.0,-4.9,-90.0,8.2,0.0,5472,3648,6e753047f0441c55b34839a8777c2765,South,East,Above Sea Level,87.88,100.0,0.0,8.2,-90.0,-4.9,8.0,-1.9,0,0,3666.666504,2736,1824,5472,3648,87.8 m Above Sea Level,"21 deg 58' 28.06"" S","113 deg 55' 43.66"" E",0.011 mm,73.7 deg,113.92879444444443,-21.97446111111111,802462.2223164251,7567105.398447526,2020-10-28 10:43:07.000000000,3.0,19.907809441121305,7.79294552798065,7.792945527847606,0,32749.0,2020-10-28 10:43:37.810221638,19.907809441121305,2.554593686,4.361311312095495e-11,2020-10-28 10:43:07.000000000,2.5,7566867.443284507,802421.834282272,19.48394651808208,7.793578607232833,269005.483712,2129,"    24,N","    19,E","   192,V",-21.97446008,113.92879538,87.877,"1.116877, 1.016336, 3.202457","16,Q",2020-10-28 02:42:48.483712000,802462.3211810921,7567105.510834005,2020-10-28 02:43:25.483712000,-21.97446551418464,113.928794104296,89.55670246400001,1.0,6.0,0.004458144,0.006183712,0.0174,0.000876704,0.007841856,0.004083712,0.483712,6.8,802462.1778273587,7567104.911301658,POINT (113.9287944444444 -21.97446111111111),"POLYGON Z ((802550.4065232576 7567023.957452483 0, 802520.664927045 7567036.155904417 0, 802499.0090475132 7567042.647094909 0, 802480.0179119023 7567047.28737859 0, 802462.2622817698 7567050.713111268 0, 802444.7777603463 7567053.191233968 0, 802426.6822161051 7567054.844747012 0, 802406.9565864337 7567055.680664617 0, 802383.9527393068 7567055.451009497 0, 802349.5800564633 7567051.223986327 0, 802349.5800564633 7567051.223986327 0, 802360.4255040146 7567069.344219079 0, 802366.1654591125 7567084.054937637 0, 802370.0706768919 7567097.589727187 0, 802372.8522668976 7567110.629396419 0, 802374.743067424 7567123.593026815 0, 802375.8002413551 7567136.860471372 0, 802375.9291013432 7567150.891732533 0, 802374.6871496846 7567166.495008314 0, 802369.9347226449 7567186.342295802 0, 802369.9347226449 7567186.342295802 0, 802401.0897931721 7567173.22943398 0, 802423.0473836395 7567166.57377221 0, 802442.1700799208 7567161.835946113 0, 802459.9538954011 7567158.33217214 0, 802477.3810144135 7567155.779752882 0, 802495.334880189 7567154.047060897 0, 802514.8190220509 7567153.118748146 0, 802537.3703784986 7567153.191062931 0, 802568.8131890917 7567156.180374375 0, 802568.8131890917 7567156.180374375 0, 802560.0180639829 7567139.201110153 0, 802554.7850878902 7567124.798209577 0, 802551.0974877892 7567111.429871681 0, 802548.4324062539 7567098.511266961 0, 802546.6010839302 7567085.648477704 0, 802545.5525017271 7567072.476597 0, 802545.3637683261 7567058.559030872 0, 802546.405009993 7567043.154329686 0, 802550.4065232576 7567023.957452483 0))",1,0,MANGB,148,MANGB_20201028T1036,DJIP4_RGB_AU_MANGB_20201028T104307_0148.JPG,2328.0,225.0,2307.5558619222475,135.6226645860786,802451.9810652145,7567148.428021581,802451.4234899471,7567150.914323133,1,"(1, array([802449.83416724]), array([[ 802449.83416724, 7567150.251361  ]]))"
7,DJIP4_RGB_AU_MANGB_20201028T104309_0149,turtle_jbs,"[[2199.941860767594, 861.8099848603877], [2215.5940346806374, 880.9404196429964]]",,circle,{},T:/drone/Surveys/AU\MANGB_20201028T1036\DJIP4_RGB_AU_MANGB_20201028T104309_0149.json,2020-10-28 10:43:09,148,T:/drone/raw/card0/SURVEY/100_0001/100_0001_0149.JPG,2020:10:28 10:43:12+08:00,DCIM\SURVEY\100_0001\100_0,1/800,7.1,Program AE,100,2020:10:28 10:43:09,DJI,7.7,1.1,0.0,-5.0,8.8,-4.4,-90.0,7.7,0.0,5472,3648,6e753047f0441c55b34839a8777c2765,South,East,Above Sea Level,88.13,99.9,0.0,7.7,-90.0,-4.4,8.8,-5.0,0,0,3666.666504,2736,1824,5472,3648,88.1 m Above Sea Level,"21 deg 58' 27.43"" S","113 deg 55' 43.77"" E",0.011 mm,73.7 deg,113.928825,-21.97428611111111,802465.7510248738,7567124.726338705,2020-10-28 10:43:09.000000000,2.0,19.64737032677602,7.778174593917963,7.778174593052023,0,32749.0,2020-10-28 10:43:40.336183236,19.64737032677602,2.5259615980000003,2.8121371897782405e-10,2020-10-28 10:43:09.500000000,2.5,7566886.643043836,802425.9812190451,19.64250093245409,7.857000372981636,269007.995306,2129,"    14,N","    16,E","   193,V",-21.97428558,113.92882613,88.134,"1.116257, 1.017584, 3.211181","16,Q",2020-10-28 02:42:50.995306000,802465.8689225029,7567124.782945236,2020-10-28 02:43:27.995306000,-21.974288835337205,113.9288236163566,90.369259858432,2.0,6.0,0.0104046940159999,0.0143,0.036102347008,0.004702347008,0.0161,0.011702347008,0.0187760639999999,1.797652992,802465.6022647299,7567124.42725762,POINT (113.928825 -21.97428611111111),"POLYGON Z ((802554.5536801094 7567044.138655649 0, 802524.7366130559 7567056.065163562 0, 802503.04662421 7567062.360824125 0, 802484.0347490291 7567066.830729918 0, 802466.2676850475 7567070.098116362 0, 802448.7797094363 7567072.421239956 0, 802430.6885340625 7567073.915283092 0, 802410.9760929912 7567074.57836871 0, 802387.998126841 7567074.148408837 0, 802353.6979745583 7567069.626118999 0, 802353.6979745583 7567069.626118999 0, 802364.3741953862 7567087.822090785 0, 802369.9799469536 7567102.567578878 0, 802373.7631172556 7567116.122363731 0, 802376.4281425173 7567129.172746652 0, 802378.2039658662 7567142.139403933 0, 802379.1443793626 7567155.402292607 0, 802379.1507837346 7567169.420112152 0, 802377.7740948928 7567184.996364028 0, 802372.8535761961 7567204.781618509 0, 802372.8535761961 7567204.781618509 0, 802404.0906219739 7567191.953972301 0, 802426.0834423969 7567185.496641445 0, 802445.2275920392 7567180.930441408 0, 802463.0234924601 7567177.585340395 0, 802480.4547729493 7567175.187496942 0, 802498.4051071922 7567173.61312193 0, 802517.8771166109 7567172.855631831 0, 802540.4044334478 7567173.124469968 0, 802571.7885449356 7567176.384790805 0, 802571.7885449356 7567176.384790805 0, 802563.1505714903 7567159.3464775 0, 802558.0485891659 7567144.912907608 0, 802554.4813595529 7567131.526298773 0, 802551.9316664039 7567118.597870395 0, 802550.2143804034 7567105.732468096 0, 802549.281716609 7567092.565118976 0, 802549.2145098033 7567078.66035448 0, 802550.388965863 7567063.28072132 0, 802554.5536801094 7567044.138655649 0))",1,0,MANGB,149,MANGB_20201028T1036,DJIP4_RGB_AU_MANGB_20201028T104309_0149.JPG,2199.0,861.0,2188.035369374131,839.6543400331263,802451.5105874632,7567150.220979693,802451.2030244676,7567150.814188734,1,"(1, array([802449.83416724]), array([[ 802449.83416724, 7567150.251361  ]]))"
8,DJIP4_RGB_AU_MANGB_20201028T104312_0150,turtle_jbs,"[[2043.478260869565, 1553.0434782608693], [2026.9565217391303, 1568.6956521739128]]",,circle,{},T:/drone/Surveys/AU\MANGB_20201028T1036\DJIP4_RGB_AU_MANGB_20201028T104312_0150.json,2020-10-28 10:43:12,149,T:/drone/raw/card0/SURVEY/100_0001/100_0001_0150.JPG,2020:10:28 10:43:14+08:00,DCIM\SURVEY\100_0001\100_0,1/800,7.1,Program AE,100,2020:10:28 10:43:12,DJI,7.8,1.1,0.0,-3.5,8.8,-4.1,-90.0,8.4,0.0,5472,3648,6e753047f0441c55b34839a8777c2765,South,East,Above Sea Level,88.29,100.1,0.0,8.4,-90.0,-4.1,8.8,-3.5,0,0,3666.666504,2736,1824,5472,3648,88.2 m Above Sea Level,"21 deg 58' 26.78"" S","113 deg 55' 43.87"" E",0.011 mm,73.7 deg,113.92885277777778,-21.97410555555556,802469.0044736196,7567144.675228054,2020-10-28 10:43:12.000000000,3.0,20.21244950486166,7.877182236343013,7.877182237323192,0,32749.0,2020-10-28 10:43:42.902132442,20.21244950486166,2.565949206,-3.1928815147352907e-10,2020-10-28 10:43:12.000000000,2.5,7566905.85672781,802429.2202277712,19.484784560788075,7.79391382431523,269010.515652,2129,"    16,N","    15,E","   193,V",-21.97410587,113.92885168,88.292,"1.110345, 1.013474, 3.200412","16,Q",2020-10-28 02:42:53.515652000,802468.8903651597,7567144.642562393,2020-10-28 02:43:30.515652000,-21.974112215296785,113.92885147670788,90.596498694912,2.0,6.0,0.0105,0.014242173952,0.035957826048,0.004684347904,0.016057826048,0.0115421739519999,0.515652096,2.757826048,802468.8558987896,7567143.939965852,POINT (113.9288527777778 -21.97410555555556),"POLYGON Z ((802556.9917604667 7567062.845160533 0, 802527.2632271592 7567075.159657889 0, 802505.6085049565 7567081.732968705 0, 802486.6147078365 7567086.444222096 0, 802468.8534003522 7567089.935400311 0, 802451.3601599481 7567092.477079422 0, 802433.2524081267 7567094.195464298 0, 802413.510093936 7567095.101136873 0, 802390.4825808018 7567094.95163221 0, 802356.0609650755 7567090.840510832 0, 802356.0609650755 7567090.840510832 0, 802366.9805066016 7567108.940857777 0, 802372.7775679905 7567123.646141124 0, 802376.7339596496 7567137.180737535 0, 802379.5638767385 7567150.223647645 0, 802381.501853301 7567163.193555888 0, 802382.606436295 7567176.470493062 0, 802382.784451577 7567190.515249662 0, 802381.5957856032 7567206.138373118 0, 802376.9079843607 7567226.021992511 0, 802376.9079843607 7567226.021992511 0, 802408.0482017593 7567212.787237553 0, 802430.0043600824 7567206.048237769 0, 802449.1295078041 7567201.238885323 0, 802466.9187559624 7567197.669489765 0, 802484.3542773002 7567195.053640825 0, 802502.3199331791 7567193.256493355 0, 802521.8201967034 7567192.259177594 0, 802544.3942196576 7567192.252766609 0, 802575.8787263883 7567195.135183487 0, 802575.8787263883 7567195.135183487 0, 802567.0155318296 7567178.169774965 0, 802561.727028893 7567163.770844085 0, 802557.9890528086 7567150.402104376 0, 802555.2761830044 7567137.479972008 0, 802553.3980961136 7567124.610797306 0, 802552.3024473005 7567111.429488944 0, 802552.0648963638 7567097.498749586 0, 802553.053346708 7567082.075099397 0, 802556.9917604667 7567062.845160533 0))",1,0,MANGB,150,MANGB_20201028T1036,DJIP4_RGB_AU_MANGB_20201028T104312_0150.JPG,2043.0,1553.0,2036.8020273415611,1550.5159333891836,802450.586251251,7567150.661886445,802450.4143773045,7567150.732414542,1,"(1, array([802449.83416724]), array([[ 802449.83416724, 7567150.251361  ]]))"
9,DJIP4_RGB_AU_MANGB_20201028T104314_0151,turtle_jbs,"[[1915.2941176470588, 2262.3529411764707], [1891.764705882353, 2276.470588235294]]",,circle,{},T:/drone/Surveys/AU\MANGB_20201028T1036\DJIP4_RGB_AU_MANGB_20201028T104314_0151.json,2020-10-28 10:43:14,150,T:/drone/raw/card0/SURVEY/100_0001/100_0001_0151.JPG,2020:10:28 10:43:16+08:00,DCIM\SURVEY\100_0001\100_0,1/800,7.1,Program AE,100,2020:10:28 10:43:14,DJI,7.8,1.1,0.0,-5.2,8.7,-5.0,-89.9,8.5,0.0,5472,3648,6e753047f0441c55b34839a8777c2765,South,East,Above Sea Level,89.7,100.2,0.0,8.5,-89.9,-5.0,8.7,-5.2,0,0,3666.666504,2736,1824,5472,3648,89.6 m Above Sea Level,"21 deg 58' 26.15"" S","113 deg 55' 44.01"" E",0.011 mm,73.7 deg,113.92889166666669,-21.973930555555555,802473.3943379058,7567163.986632466,2020-10-28 10:43:14.000000000,2.0,19.80407152174768,7.8771822380951955,7.877182237323192,0,32749.0,2020-10-28 10:43:45.416238492,19.80407152174768,2.51410605,2.463953485687398e-10,2020-10-28 10:43:14.500000000,2.5,7566925.115424038,802431.9051149149,19.444947914223004,7.777979165689201,269013.036011,2129,"    16,N","    19,E","   193,V",-21.97392968,113.92889173,89.699,"1.101490, 1.008540, 3.165033","16,Q",2020-10-28 02:42:56.036011000,802473.4027397229,7567164.083510423,2020-10-28 02:43:33.036011000,-21.97393449130152,113.9288797197222,90.544103603712,2.0,6.0,0.010436011008,0.0142,0.035881994496,0.004436011008,0.015918005504,0.011581994496,0.036011008,1.918005504,802472.1514221886,7567163.574224632,POINT (113.9288916666667 -21.97393055555555),"POLYGON Z ((802561.222128283 7567082.018444462 0, 802531.5286607828 7567094.372990177 0, 802509.8886847257 7567100.980084632 0, 802490.9035905458 7567105.722601066 0, 802473.14770029 7567109.244094139 0, 802455.6579844567 7567111.816477916 0, 802437.5528779728 7567113.567386832 0, 802417.8133648272 7567114.509260228 0, 802394.7903744876 7567114.40297387 0, 802360.3815552482 7567110.360654905 0, 802360.3815552482 7567110.360654905 0, 802371.2956254997 7567128.425945121 0, 802377.0932352677 7567143.117317178 0, 802381.0523276143 7567156.648511312 0, 802383.8860427818 7567169.696079939 0, 802385.82833602 7567182.678118146 0, 802386.9372837183 7567195.975088468 0, 802387.1191368494 7567210.049365746 0, 802385.9326013342 7567225.715567089 0, 802381.2404310736 7567245.670991623 0, 802381.2404310736 7567245.670991623 0, 802412.4341188403 7567232.342860685 0, 802434.4251759612 7567225.548133736 0, 802453.5800511354 7567220.693969831 0, 802471.3973214867 7567217.085732401 0, 802488.8615243251 7567214.434367699 0, 802506.8587976568 7567212.603096331 0, 802526.3965209988 7567211.571312956 0, 802549.0190015597 7567211.528149146 0, 802580.585843416 7567214.36786756 0, 802580.585843416 7567214.36786756 0, 802571.6429772824 7567197.37105032 0, 802566.2952905284 7567182.950076619 0, 802562.5066867016 7567169.565602476 0, 802559.7477900147 7567156.632781448 0, 802557.8260138077 7567143.757387515 0, 802556.6872196795 7567130.574244047 0, 802556.4051957475 7567116.646439138 0, 802557.3449936269 7567101.231474455 0, 802561.222128283 7567082.018444462 0))",1,0,MANGB,151,MANGB_20201028T1036,DJIP4_RGB_AU_MANGB_20201028T104314_0151.JPG,1915.0,2262.0,1901.9169605879772,2270.090145635519,802449.8661662219,7567150.398168586,802449.4955535854,7567150.172631057,1,"(1, array([802449.83416724]), array([[ 802449.83416724, 7567150.251361  ]]))"
10,DJIP4_RGB_AU_MANGB_20201028T104317_0152,turtle_jbs,"[[1792.0212765957447, 2937.7659574468084], [1766.4893617021276, 2947.3404255319147]]",,circle,{},T:/drone/Surveys/AU\MANGB_20201028T1036\DJIP4_RGB_AU_MANGB_20201028T104317_0152.json,2020-10-28 10:43:17,151,T:/drone/raw/card0/SURVEY/100_0001/100_0001_0152.JPG,2020:10:28 10:43:20+08:00,DCIM\SURVEY\100_0001\100_0,1/800,6.3,Program AE,100,2020:10:28 10:43:17,DJI,7.8,1.1,0.1,-5.8,8.4,-4.8,-90.0,8.2,0.0,5472,3648,6e753047f0441c55b34839a8777c2765,South,East,Above Sea Level,90.41,100.1,0.0,8.2,-90.0,-4.8,8.4,-5.8,0,0,3666.666504,2736,1824,5472,3648,90.4 m Above Sea Level,"21 deg 58' 25.51"" S","113 deg 55' 44.09"" E",0.011 mm,73.7 deg,113.9289138888889,-21.973752777777776,802476.0678068071,7567183.638761049,2020-10-28 10:43:17.000000000,3.0,19.83314382043288,7.877182237282354,7.877182237323192,0,32749.0,2020-10-28 10:43:47.934035240,19.83314382043288,2.5177967480000003,-1.3053114145122887e-11,2020-10-28 10:43:17.000000000,2.5,7566944.614629037,802434.2797158583,19.643261573045223,7.857304629218089,269015.560643,2129,"    13,N","    17,E","   193,V",-21.97375184,113.92891467,90.408,"1.100572, 1.009307, 3.172399","16,Q",2020-10-28 02:42:58.560643000,802476.1505140893,7567183.741112603,2020-10-28 02:43:35.560643000,-21.97375749971552,113.92890762825448,90.279265403648,2.0,6.0,0.010539356928,0.014119678464,0.0357,0.0047,0.0159,0.011480321536,0.560643072,2.880321536,802475.4108319586,7567183.128001006,POINT (113.9289138888889 -21.97375277777778),"POLYGON Z ((802564.3401978465 7567102.116325011 0, 802534.5688600377 7567114.326975398 0, 802512.8913246264 7567120.82465708 0, 802493.8811978799 7567125.469581043 0, 802476.1078121172 7567128.898739456 0, 802458.6058061722 7567131.379340278 0, 802440.4921663868 7567133.034506835 0, 802420.7468110857 7567133.871260357 0, 802397.7199601118 7567133.641375583 0, 802363.3129045854 7567129.410125389 0, 802363.3129045854 7567129.410125389 0, 802374.1691975842 7567147.548478374 0, 802379.9148926373 7567162.273907651 0, 802383.8240156345 7567175.822231989 0, 802386.6083872301 7567188.874940892 0, 802388.5010785571 7567201.851534918 0, 802389.5593096621 7567215.132246919 0, 802389.6882985102 7567229.177539342 0, 802388.4451049 7567244.796418399 0, 802383.687925433 7567264.663553174 0, 802383.687925433 7567264.663553174 0, 802414.8741510309 7567251.53757849 0, 802436.8536990888 7567244.875261058 0, 802455.9955180663 7567240.132697135 0, 802473.7971173621 7567236.625419388 0, 802491.2416634936 7567234.070447711 0, 802509.2134831349 7567232.336023034 0, 802528.7171091386 7567231.406781971 0, 802551.2910169427 7567231.47916907 0, 802582.7652703464 7567234.471469825 0, 802582.7652703464 7567234.471469825 0, 802573.9613501126 7567217.475226339 0, 802568.7231410438 7567203.057922862 0, 802565.0318533427 7567189.676216628 0, 802562.3641067258 7567176.744693303 0, 802560.5309530798 7567163.869041258 0, 802559.4813222945 7567150.683988674 0, 802559.2924001601 7567136.752504978 0, 802560.3346830687 7567121.332399093 0, 802564.3401978465 7567102.116325011 0))",1,0,MANGB,152,MANGB_20201028T1036,DJIP4_RGB_AU_MANGB_20201028T104317_0152.JPG,1792.0,2937.0,1751.2556072320106,2988.224764698816,802449.4812290831,7567150.529584173,802448.3198016192,7567149.074673889,1,"(1, array([802449.83416724]), array([[ 802449.83416724, 7567150.251361  ]]))"
11,DJIP4_RGB_AU_MANGB_20201028T104319_0153,turtle_jbs,"[[1688.9189189189187, 3550.5405405405404], [1665.135135135135, 3557.8378378378375]]",,circle,{},T:/drone/Surveys/AU\MANGB_20201028T1036\DJIP4_RGB_AU_MANGB_20201028T104319_0153.json,2020-10-28 10:43:19,152,T:/drone/raw/card0/SURVEY/100_0001/100_0001_0153.JPG,2020:10:28 10:43:22+08:00,DCIM\SURVEY\100_0001\100_0,1/640,6.3,Program AE,100,2020:10:28 10:43:19,DJI,7.8,1.1,0.0,-6.7,9.0,-5.0,-90.0,8.0,0.0,5472,3648,6e753047f0441c55b34839a8777c2765,South,East,Above Sea Level,87.18,99.9,0.0,8.0,-90.0,-5.0,9.0,-6.7,0,0,3666.666504,2736,1824,5472,3648,87.1 m Above Sea Level,"21 deg 58' 24.84"" S","113 deg 55' 44.17"" E",0.011 mm,73.7 deg,113.92893611111111,-21.973566666666667,802478.7589540944,7567204.214143884,2020-10-28 10:43:19.000000000,2.0,20.75063017207125,7.877182238332914,7.877182237323192,0,32749.0,2020-10-28 10:43:50.568305915,20.75063017207125,2.634270675,3.37669447958433e-10,2020-10-28 10:43:19.500000000,2.5,7566964.01264439,802437.6253885429,19.68442341913409,7.873769367653637,269018.099346,2129,"    12,N","    18,E","   193,V",-21.97356701,113.92893699,87.185,"1.097893, 1.002268, 3.151324","16,Q",2020-10-28 02:43:01.099346000,802478.8490483088,7567204.174367029,2020-10-28 02:43:38.099346000,-21.97357945970711,113.92893439293556,89.8574869184,1.0,6.0,0.00420065408,0.0061,0.0172,4.50944e-05,0.00775032704,0.00394901888,0.09934592,3.74967296,802478.5542667909,7567202.800195484,POINT (113.9289361111111 -21.97356666666667),"POLYGON Z ((802567.1384378514 7567123.162598014 0, 802537.3842262869 7567135.245063525 0, 802515.7274986129 7567141.654205786 0, 802496.7392883073 7567146.223595798 0, 802478.9895757894 7567149.583965158 0, 802461.5140036903 7567151.998623315 0, 802443.4308990615 7567153.58737071 0, 802423.7222000959 7567154.353660868 0, 802400.7422976675 7567154.044018688 0, 802366.418937017 7567149.701385196 0, 802366.418937017 7567149.701385196 0, 802377.1902849479 7567167.841207251 0, 802382.8731665154 7567182.557141704 0, 802386.7272573219 7567196.091932209 0, 802389.4605773852 7567209.128182262 0, 802391.3042693399 7567222.085363653 0, 802392.3141139507 7567235.343146551 0, 802392.3939150311 7567249.36074041 0, 802391.0988017521 7567264.943987064 0, 802386.2819453814 7567284.754733992 0, 802386.2819453814 7567284.754733992 0, 802417.4513978779 7567271.763707579 0, 802439.410106478 7567265.191311627 0, 802458.5300852389 7567260.524936108 0, 802476.30822689 7567257.086702256 0, 802493.726713414 7567254.59762212 0, 802511.6685582275 7567252.929281387 0, 802531.136334538 7567252.069846935 0, 802553.6647502027 7567252.22072917 0, 802585.0655024068 7567255.316679244 0, 802585.0655024068 7567255.316679244 0, 802576.3384353765 7567238.323827611 0, 802571.1609493389 7567223.917169366 0, 802567.523676825 7567210.549421917 0, 802564.9063258431 7567197.634520859 0, 802563.1217006017 7567184.778286563 0, 802562.1201058283 7567171.616001333 0, 802561.9800950998 7567157.711779333 0, 802563.0740078574 7567142.326207583 0, 802567.1384378514 7567123.162598014 0))",1,0,MANGB,153,MANGB_20201028T1036,DJIP4_RGB_AU_MANGB_20201028T104319_0153.JPG,1688.0,3550.0,1596.4066848154882,3708.974118762325,802450.668556307,7567154.189003548,802448.1487565087,7567149.799934643,1,"(1, array([802449.83416724]), array([[ 802449.83416724, 7567150.251361  ]]))"
12,DJIP4_RGB_AU_MANGB_20201028T105127_0341,turtle_surface,"[[3574.324324324324, 1157.5675675675675], [3581.8918918918916, 1157.0270270270269]]",,circle,{},T:/drone/Surveys/AU\MANGB_20201028T1036\DJIP4_RGB_AU_MANGB_20201028T105127_0341.json,2020-10-28 10:51:27,340,T:/drone/raw/card0/SURVEY/100_0001/100_0001_0341.JPG,2020:10:28 10:51:30+08:00,DCIM\SURVEY\100_0001\100_0,1/800,7.1,Program AE,100,2020:10:28 10:51:27,DJI,-4.7,6.2,-0.1,-10.6,126.4,8.1,-44.9,127.9,0.0,5472,3648,6e753047f0441c55b34839a8777c2765,South,East,Above Sea Level,90.64,99.8,0.0,127.9,-44.9,8.1,126.4,-10.6,0,0,3666.666504,2736,1824,5472,3648,90.6 m Above Sea Level,"21 deg 58' 16.67"" S","113 deg 55' 28.49"" E",0.011 mm,73.7 deg,113.92458055555556,-21.97129722222222,802033.4722595925,7567464.25685776,2020-10-28 10:51:27.000000000,3.0,19.421039482755447,7.780102827053853,7.780102827083971,0,32749.0,2020-10-28 10:52:35.506502710,19.421039482755447,2.496244576,-9.663381206337364e-12,2020-10-28 10:51:27.000000000,2.5,7567097.841956248,801915.8381120998,19.5007930307937,7.800317212317481,269505.610417,2129,"    21,N","    16,E","   193,V",-21.97129759,113.92458173,90.639,"1.121448, 1.066045, 3.001460","16,Q",2020-10-28 02:51:08.610417000,802033.592846856,7567464.213791752,2020-10-28 02:51:45.610417000,-21.97130240881185,113.9245741893057,89.58416878233601,1.0,5.0,0.0057843746559999,0.0061,0.017705208448,0.001179166208,0.0061,0.0061,0.6104168959999999,13.9,802032.803393123,7567463.694809555,POINT (113.9245805555556 -21.97129722222222),"POLYGON Z ((801952.3348000068 7567453.085587542 0, 801965.7219623107 7567463.603961638 0, 801975.3754385345 7567472.956717359 0, 801983.7100816837 7567481.883649636 0, 801991.2289748965 7567490.717118781 0, 801998.2245456874 7567499.742956582 0, 802004.924687795 7567509.256415863 0, 802011.5338001112 7567519.617553798 0, 802018.2476567758 7567531.434225985 0, 802025.1554082045 7567547.960667579 0, 802025.1554082045 7567547.960667579 0, 802035.2049406681 7567543.322853041 0, 802046.4895837997 7567540.376190327 0, 802059.8870995354 7567537.908966281 0, 802076.4492968754 7567535.655072472 0, 802097.8916434462 7567533.527544191 0, 802127.3834821578 7567531.509853526 0, 802171.7043874176 7567529.697805293 0, 802249.4882729331 7567528.708256181 0, 802453.3535362873 7567533.974193719 0, 802453.3535362873 7567533.974193719 0, 802294.9670136095 7567475.209803124 0, 802235.140383598 7567441.224306582 0, 802196.3124490811 7567412.856837717 0, 802167.7072319407 7567385.702739843 0, 802144.9031373885 7567356.820233146 0, 802125.3969769347 7567323.085944606 0, 802107.3985562744 7567279.730766593 0, 802089.2775023885 7567216.262229496 0, 802070.7813089261 7567072.958405173 0, 802070.7813089261 7567072.958405173 0, 802026.8010411247 7567247.576091237 0, 802006.3266414335 7567318.868996994 0, 801993.3699184643 7567359.948739676 0, 801983.9486626644 7567387.295959396 0, 801976.4614433239 7567407.103448656 0, 801970.0997807229 7567422.300413392 0, 801964.3626613315 7567434.469509091 0, 801958.7859197375 7567444.54114639 0, 801952.3348000068 7567453.085587542 0))",1,0,MANGB,341,MANGB_20201028T1036,DJIP4_RGB_AU_MANGB_20201028T105127_0341.JPG,3574.0,1157.0,3595.125458976855,1142.0583864433288,802044.6318057916,7567422.333011368,802044.9622003536,7567421.131723926,2,"(2, array([802061.25863985, 802049.10400406]), array([[ 802061.25863985, 7567405.88251602],
       [ 802049.10400406, 7567416.71711222]]))"
13,DJIP4_RGB_AU_MANGB_20201028T105129_0342,turtle_surface,"[[3620.810810810811, 1405.9459459459458], [3618.9189189189187, 1409.1891891891892]]",,circle,{},T:/drone/Surveys/AU\MANGB_20201028T1036\DJIP4_RGB_AU_MANGB_20201028T105129_0342.json,2020-10-28 10:51:29,341,T:/drone/raw/card0/SURVEY/100_0001/100_0001_0342.JPG,2020:10:28 10:51:32+08:00,DCIM\SURVEY\100_0001\100_0,1/800,7.1,Program AE,100,2020:10:28 10:51:29,DJI,-4.7,6.2,0.0,-11.9,126.6,7.2,-45.0,127.9,0.0,5472,3648,6e753047f0441c55b34839a8777c2765,South,East,Above Sea Level,91.14,99.9,0.0,127.9,-45.0,7.2,126.6,-11.9,0,0,3666.666504,2736,1824,5472,3648,91.1 m Above Sea Level,"21 deg 58' 17.05"" S","113 deg 55' 29.03"" E",0.011 mm,73.7 deg,113.92473055555556,-21.971402777777776,802048.7495887554,7567452.266039507,2020-10-28 10:51:29.000000000,2.0,19.42103263793664,7.78010282772353,7.780102827083971,0,32749.0,2020-10-28 10:52:38.002746406,19.42103263793664,2.496243696,2.0520252164146766e-10,2020-10-28 10:51:29.500000000,2.5,7567117.237886553,801918.7285579772,19.61011957565944,7.844047830263776,269508.141273,2129,"    22,N","    11,E","   193,V",-21.97140195,113.92472923,91.14,"1.102234, 1.051645, 3.004473","16,Q",2020-10-28 02:51:11.141273000,802048.6143601176,7567452.360367638,2020-10-28 02:51:48.141273000,-21.97141066193992,113.92472758566454,89.837854208512,1.0,5.0,0.0053,0.005970636544,0.0175,-0.0017,0.0061,0.0061,0.141273088,14.0,802048.4259857963,7567451.398418272,POINT (113.9247305555556 -21.97140277777778),"POLYGON Z ((801967.4948279629 7567441.006257336 0, 801980.9155997137 7567451.554562056 0, 801990.5915559672 7567460.930603003 0, 801998.944963879 7567469.878505892 0, 802006.4805577573 7567478.732007815 0, 802013.4917490847 7567487.777978828 0, 802020.2072200677 7567497.312692084 0, 802026.8321378583 7567507.697438356 0, 802033.5632343087 7567519.542140883 0, 802040.4925648096 7567536.111674992 0, 802040.4925648096 7567536.111674992 0, 802050.5512380422 7567531.453000876 0, 802061.842115995 7567528.491237697 0, 802075.2405495237 7567526.010240594 0, 802091.794001852 7567523.742694617 0, 802113.2088952363 7567521.600830576 0, 802142.6335256279 7567519.567064426 0, 802186.790039418 7567517.735017703 0, 802264.1044845961 7567516.713996376 0, 802465.6786912994 7567521.866510274 0, 802465.6786912994 7567521.866510274 0, 802308.9463818657 7567463.389457501 0, 802249.5202641465 7567429.494130296 0, 802210.8901932063 7567401.188660276 0, 802182.3967177561 7567374.096887556 0, 802159.6575209945 7567345.294330163 0, 802140.1865298643 7567311.678471682 0, 802122.2011822066 7567268.519682338 0, 802104.0711090338 7567205.432663694 0, 802085.4786502216 7567063.459800709 0, 802085.4786502216 7567063.459800709 0, 802041.9168966009 7567236.188657715 0, 802021.5288022319 7567307.049248645 0, 802008.5945247875 7567347.971892102 0, 801999.1751089133 7567375.252445618 0, 801991.6813350251 7567395.030769708 0, 801985.3090248784 7567410.216323175 0, 801979.5587324185 7567422.383141554 0, 801973.9664177411 7567432.457339744 0, 801967.4948279629 7567441.006257336 0))",1,0,MANGB,342,MANGB_20201028T1036,DJIP4_RGB_AU_MANGB_20201028T105129_0342.JPG,3620.0,1405.0,3639.2909306491647,1397.8879912591285,802048.9044383396,7567417.332303929,802048.8777839384,7567416.563510286,2,"(2, array([802061.25863985, 802049.10400406]), array([[ 802061.25863985, 7567405.88251602],
       [ 802049.10400406, 7567416.71711222]]))"
14,DJIP4_RGB_AU_MANGB_20201028T105132_0343,turtle_surface,"[[3657.929883138564, 1691.6527545909848], [3658.430717863105, 1688.6477462437394]]",,circle,{},T:/drone/Surveys/AU\MANGB_20201028T1036\DJIP4_RGB_AU_MANGB_20201028T105132_0343.json,2020-10-28 10:51:32,342,T:/drone/raw/card0/SURVEY/100_0001/100_0001_0343.JPG,2020:10:28 10:51:34+08:00,DCIM\SURVEY\100_0001\100_0,1/800,6.3,Program AE,100,2020:10:28 10:51:32,DJI,-4.7,6.2,0.0,-10.3,126.3,8.9,-44.9,128.1,0.0,5472,3648,6e753047f0441c55b34839a8777c2765,South,East,Above Sea Level,90.9,99.9,0.0,128.1,-44.9,8.9,126.3,-10.3,0,0,3666.666504,2736,1824,5472,3648,90.8 m Above Sea Level,"21 deg 58' 17.46"" S","113 deg 55' 29.63"" E",0.011 mm,73.7 deg,113.92489722222224,-21.971516666666663,802065.7315630403,7567439.319027042,2020-10-28 10:51:32.000000000,3.0,21.35445111428052,7.780102827061508,7.780102827083971,0,32749.0,2020-10-28 10:52:40.747498190,21.35445111428052,2.744751784,-7.924771949774367e-12,2020-10-28 10:51:32.000000000,2.5,7567136.62785413,801921.1910070498,19.54570280374818,7.818281121499273,269510.65753,2129,"    23,N","    17,E","   193,V",-21.97151611,113.92489684,90.895,"1.048522, 1.132942, 2.950066","16,Q",2020-10-28 02:51:13.657530000,802065.693243554,7567439.381455337,2020-10-28 02:51:50.657530000,-21.97151769611108,113.92488234490312,89.883157530112,1.0,5.0,0.0057,0.006086295168,0.0177,-0.000413704832,0.0061,0.0061,0.657530112,14.228765056,802064.1919751477,7567439.234364688,POINT (113.9248972222222 -21.97151666666666),"POLYGON Z ((801984.4742641241 7567428.420137672 0, 801997.9115115443 7567438.902210334 0, 802007.6072816413 7567448.230549832 0, 802015.9814173401 7567457.137250005 0, 802023.5386641183 7567465.953244318 0, 802030.5727394598 7567474.963627434 0, 802037.312795721 7567484.463149926 0, 802043.9646934493 7567494.811513353 0, 802050.7265256952 7567506.616494613 0, 802057.6989024424 7567523.135258269 0, 802057.6989024424 7567523.135258269 0, 802067.7422380758 7567518.457710342 0, 802079.0278235675 7567515.468682804 0, 802092.4300611152 7567512.952188718 0, 802109.0008773985 7567510.638179458 0, 802130.4571446206 7567508.433609606 0, 802159.9713043065 7567506.31086063 0, 802204.3300174357 7567504.342143918 0, 802282.1879107232 7567503.079820818 0, 802486.2746045977 7567507.638667114 0, 802486.2746045977 7567507.638667114 0, 802327.5250123608 7567449.369178856 0, 802267.5200502849 7567415.558879132 0, 802228.5543266474 7567387.298829538 0, 802199.8257409466 7567360.217639639 0, 802176.8980158861 7567331.386049598 0, 802157.2545565061 7567297.686322326 0, 802139.0867216638 7567254.350855814 0, 802120.7258523902 7567190.882427711 0, 802101.7105135425 7567047.500514771 0, 802101.7105135425 7567047.500514771 0, 802058.2965857718 7567222.44577717 0, 802038.050903552 7567293.881224533 0, 802025.2248156546 7567335.04715148 0, 802015.8897324358 7567362.454525721 0, 802008.4642668519 7567382.307902831 0, 802002.1493690958 7567397.542230906 0, 801996.4490567097 7567409.743492224 0, 801990.9019530098 7567419.844645889 0, 801984.4742641241 7567428.420137672 0))",1,0,MANGB,343,MANGB_20201028T1036,DJIP4_RGB_AU_MANGB_20201028T105132_0343.JPG,3657.0,1691.0,3675.609441410742,1689.5516648828043,802053.6975731854,7567412.968817125,802053.4720278903,7567412.456102443,2,"(2, array([802061.25863985, 802049.10400406]), array([[ 802061.25863985, 7567405.88251602],
       [ 802049.10400406, 7567416.71711222]]))"
15,DJIP4_RGB_AU_MANGB_20201028T105134_0344,turtle_surface,"[[3701.217391304348, 2034.7826086956522], [3708.3478260869565, 2035.8260869565217]]",,circle,{},T:/drone/Surveys/AU\MANGB_20201028T1036\DJIP4_RGB_AU_MANGB_20201028T105134_0344.json,2020-10-28 10:51:34,343,T:/drone/raw/card0/SURVEY/100_0001/100_0001_0344.JPG,2020:10:28 10:51:36+08:00,DCIM\SURVEY\100_0001\100_0,1/800,7.1,Program AE,100,2020:10:28 10:51:34,DJI,-4.7,6.2,0.0,-10.2,126.5,8.8,-44.9,128.0,0.0,5472,3648,6e753047f0441c55b34839a8777c2765,South,East,Above Sea Level,89.59,99.8,0.0,128.0,-44.9,8.8,126.5,-10.2,0,0,3666.666504,2736,1824,5472,3648,89.5 m Above Sea Level,"21 deg 58' 17.83"" S","113 deg 55' 30.13"" E",0.011 mm,73.7 deg,113.92503611111113,-21.971619444444443,802079.8665178875,7567427.657873351,2020-10-28 10:51:34.000000000,2.0,18.324285905155225,7.78010282805171,7.780102827083971,0,32749.0,2020-10-28 10:52:43.102773732,18.324285905155225,2.355275542,2.9296387538124686e-10,2020-10-28 10:51:34.500000000,2.5,7567155.923945968,801924.6851359643,19.60989793661949,7.843959174647796,269513.181993,2129,"    22,N","    18,E","   192,V",-21.97162081,113.9250364,89.589,"1.080453, 1.092530, 3.058104","16,Q",2020-10-28 02:51:16.181993000,802079.8934790487,7567427.506012421,2020-10-28 02:51:53.181993000,-21.97162626111862,113.92503546759684,90.02397962368,1.0,5.0,0.0052,0.00599099648,0.0175,-0.0013199296,0.0061819929599999,0.00619099648,0.18199296,14.4,802079.7855797494,7567426.903923836,POINT (113.9250361111111 -21.97161944444444),"POLYGON Z ((801998.7096843463 7567416.628231658 0, 802012.1151842771 7567427.123224739 0, 802021.7849694276 7567436.459117729 0, 802030.1351803106 7567445.37148972 0, 802037.6694793757 7567454.191822474 0, 802044.6807925625 7567463.20543696 0, 802051.3975285755 7567472.707187803 0, 802058.0247144134 7567483.056774886 0, 802064.7591848255 7567494.86171119 0, 802071.6957698003 7567511.376071318 0, 802071.6957698003 7567511.376071318 0, 802081.7371924483 7567506.72072411 0, 802093.0166754985 7567503.754370476 0, 802106.4098647125 7567501.263767123 0, 802122.968103042 7567498.980970275 0, 802144.4067037188 7567496.816021299 0, 802173.8949759791 7567494.746860764 0, 802218.2126511151 7567492.857460758 0, 802295.9946910708 7567491.732154731 0, 802499.8688347107 7567496.642272422 0, 802499.8688347107 7567496.642272422 0, 802341.3799901115 7567438.154407821 0, 802281.49413537 7567404.273380157 0, 802242.6167494433 7567375.973721992 0, 802213.9641830539 7567348.869590973 0, 802191.109713776 7567320.0269289 0, 802171.5447056213 7567286.326736396 0, 802153.470643352 7567243.003037571 0, 802135.2388436279 7567179.56622433 0, 802116.4925661073 7567036.294900204 0, 802116.4925661073 7567036.294900204 0, 802072.8171304924 7567210.989080318 0, 802052.4671915162 7567282.31761204 0, 802039.5821859214 7567323.41990589 0, 802030.2086743491 7567350.783527144 0, 802022.7560369851 7567370.604053892 0, 802016.4209077671 7567385.812098672 0, 802010.7050361818 7567397.991188993 0, 802005.1458813959 7567408.072544197 0, 801998.7096843463 7567416.628231658 0))",1,0,MANGB,344,MANGB_20201028T1036,DJIP4_RGB_AU_MANGB_20201028T105134_0344.JPG,3701.0,2034.0,3722.276843912273,2039.64947982456,802058.6363496722,7567408.645401594,802058.2028617315,7567408.291710034,2,"(2, array([802061.25863985, 802049.10400406]), array([[ 802061.25863985, 7567405.88251602],
       [ 802049.10400406, 7567416.71711222]]))"
16,DJIP4_RGB_AU_MANGB_20201028T105137_0345,turtle_surface,"[[3735.2941176470586, 2442.4632352941176], [3740.8088235294117, 2444.485294117647]]",,circle,{},T:/drone/Surveys/AU\MANGB_20201028T1036\DJIP4_RGB_AU_MANGB_20201028T105137_0345.json,2020-10-28 10:51:37,344,T:/drone/raw/card0/SURVEY/100_0001/100_0001_0345.JPG,2020:10:28 10:51:40+08:00,DCIM\SURVEY\100_0001\100_0,1/800,7.1,Program AE,100,2020:10:28 10:51:37,DJI,-4.7,6.2,0.0,-10.7,126.6,7.3,-44.9,128.0,0.0,5472,3648,6e753047f0441c55b34839a8777c2765,South,East,Above Sea Level,92.43,99.9,0.0,128.0,-44.9,7.3,126.6,-10.7,0,0,3666.666504,2736,1824,5472,3648,92.4 m Above Sea Level,"21 deg 58' 18.23"" S","113 deg 55' 30.65"" E",0.011 mm,73.7 deg,113.92518055555556,-21.97173055555556,802094.5579058994,7567415.062476382,2020-10-28 10:51:37.000000000,3.0,19.35150915393841,7.780102826612564,7.780102827083971,0,32749.0,2020-10-28 10:52:45.590081366,19.35150915393841,2.487307634,-1.5070966696839602e-10,2020-10-28 10:51:37.000000000,2.5,7567175.152592431,801929.0404605352,19.715722074238872,7.886288829695549,269515.693766,2129,"    20,N","    14,E","   193,V",-21.97173047,113.92517993,92.435,"1.066118, 1.085927, 3.017051","16,Q",2020-10-28 02:51:18.693766000,802094.4934429047,7567415.073191013,2020-10-28 02:51:55.693766000,-21.97173449952161,113.92518754425032,90.189370608896,1.0,5.0,0.0055,0.006046882944,0.0177,-0.0009344147199999,0.0061,0.006146882944,0.6937658879999999,14.6,802095.271755846,7567414.611715857,POINT (113.9251805555556 -21.97173055555556),"POLYGON Z ((802013.3197528857 7567404.021782943 0, 802026.7386851812 7567414.527292049 0, 802036.4181594952 7567423.872539641 0, 802044.7767373229 7567432.793841866 0, 802052.3185857859 7567441.623012628 0, 802059.3369243366 7567450.645658792 0, 802066.0603905461 7567460.156930426 0, 802072.6942168508 7567470.516887838 0, 802079.4354352291 7567482.333652735 0, 802086.37897069 7567498.864560318 0, 802086.37897069 7567498.864560318 0, 802096.4304548837 7567494.204548434 0, 802107.7212400209 7567491.235222502 0, 802121.1278492643 7567488.742123554 0, 802137.702679015 7567486.457039334 0, 802159.1627612556 7567484.289921071 0, 802188.6805808829 7567482.218687229 0, 802233.042662507 7567480.327394036 0, 802310.9026403785 7567479.200960448 0, 802514.9810667274 7567484.115998097 0, 802514.9810667274 7567484.115998097 0, 802356.3334156707 7567425.569528421 0, 802296.3875550628 7567391.654551832 0, 802257.4712138396 7567363.326537296 0, 802228.7899374638 7567336.19524783 0, 802205.9125679161 7567307.323685293 0, 802186.3279555447 7567273.589725061 0, 802168.2357829926 7567230.222615716 0, 802149.9857149321 7567166.722238534 0, 802131.2206535663 7567023.307355966 0, 802131.2206535663 7567023.307355966 0, 802087.5014549899 7567198.17658035 0, 802067.1311252932 7567269.576583546 0, 802054.2332088711 7567310.720062059 0, 802044.8503050028 7567338.111101772 0, 802037.3902000663 7567357.951488767 0, 802031.0487230234 7567373.174772068 0, 802025.3271241119 7567385.366065887 0, 802019.7623990306 7567395.457522649 0, 802013.3197528857 7567404.021782943 0))",1,0,MANGB,345,MANGB_20201028T1036,DJIP4_RGB_AU_MANGB_20201028T105137_0345.JPG,3735.0,2442.0,3766.304998773494,2461.6756426352263,802062.8313684855,7567404.024024573,802062.0026572909,7567403.75089026,2,"(2, array([802061.25863985, 802049.10400406]), array([[ 802061.25863985, 7567405.88251602],
       [ 802049.10400406, 7567416.71711222]]))"
